id,name,surname,username,job,address
1,Maria,Williams,maria.williams46,Analyst,"{'city': 'Mexico City', 'coordinates': {'lat': 19.4326, 'lng': -99.1332}}"
2,James,Martin,james.martin9,Doctor,"{'city': 'Delhi', 'coordinates': {'lat': 28.7041, 'lng': 77.1025}}"
3,Thomas,Jones,thomas.jones47,Pilot,"{'city': 'Dubai', 'coordinates': {'lat': 25.276987, 'lng': 55.296249}}"
4,Laura,Anderson,laura.anderson26,Writer,"{'city': 'Paris', 'coordinates': {'lat': 48.8566, 'lng': 2.3522}}"
5,David,Martinez,david.martinez38,Developer,"{'city': 'Rio de Janeiro', 'coordinates': {'lat': -22.9068, 'lng': -43.1729}}"
6,Alice,Martin,alice.martin95,Writer,"{'city': 'Madrid', 'coordinates': {'lat': 40.4168, 'lng': -3.7038}}"
7,Joseph,Williams,joseph.williams27,Designer,"{'city': 'Delhi', 'coordinates': {'lat': 28.7041, 'lng': 77.1025}}"
8,Joseph,Davis,joseph.davis49,Architect,"{'city': 'Moscow', 'coordinates': {'lat': 55.7558, 'lng': 37.6173}}"
9,Michael,Martin,michael.martin51,Architect,"{'city': 'New York', 'coordinates': {'lat': 40.7128, 'lng': -74.006}}"
10,Daniel,Jackson,daniel.jackson68,Manager,"{'city': 'Sydney', 'coordinates': {'lat': -33.8688, 'lng': 151.2093}}"
11,James,Moore,james.moore60,Doctor,"{'city': 'Seoul', 'coordinates': {'lat': 37.5665, 'lng': 126.978}}"
12,Maria,Miller,maria.miller5,Engineer,"{'city': 'New York', 'coordinates': {'lat': 40.7128, 'lng': -74.006}}"
13,Sophia,Johnson,sophia.johnson29,Architect,"{'city': 'Cairo', 'coordinates': {'lat': 30.0444, 'lng': 31.2357}}"
14,Sophia,Martin,sophia.martin80,Photographer,"{'city': 'Istanbul', 'coordinates': {'lat': 41.0082, 'lng': 28.9784}}"
15,Charles,Lee,charles.lee15,Developer,"{'city': 'Dubai', 'coordinates': {'lat': 25.276987, 'lng': 55.296249}}"
